,City,Country,Lat,Lng,Max Temp,Humidity,Cloudiness,Wind Speed,Current Description
0,Varnavino,RU,57.4035,45.0916,4.26,98,70,4.97,broken clouds
1,Saint-Philippe,RE,-21.3585,55.7679,80.19,85,93,3.47,light rain
2,Hermanus,ZA,-34.4187,19.2345,63.9,68,98,9.6,overcast clouds
3,Torbay,CA,47.6666,-52.7314,41.29,95,100,5.01,heavy intensity rain
4,Narsaq,GL,60.9167,-46.05,25.02,71,100,12.93,snow
5,Bloemfontein,ZA,-29.1211,26.214,67.48,83,5,11.5,clear sky
6,Belmonte,BR,-15.8631,-38.8828,81.1,77,91,6.55,overcast clouds
7,Guerrero Negro,MX,27.9769,-114.0611,67.46,67,97,13.04,overcast clouds
8,Trat,TH,12.5,102.5,81.99,59,96,3.94,overcast clouds
9,Uruzgan,AF,32.8333,66.0,43.68,92,100,1.36,overcast clouds
10,Puerto Ayora,EC,-0.7393,-90.3518,82.36,74,94,9.37,overcast clouds
11,Minab,IR,27.1467,57.0801,63.9,90,56,8.43,broken clouds
12,Klaksvik,FO,62.2266,-6.589,43.72,93,100,25.75,overcast clouds
13,Gornyy,RU,55.1153,83.9059,-1.03,100,80,6.91,broken clouds
14,Terrace,CA,54.5163,-128.6035,33.42,88,100,0.96,overcast clouds
15,Bilma,NE,18.6853,12.9164,56.79,30,0,9.89,clear sky
16,Ilulissat,GL,69.2167,-51.1,12.22,44,100,13.8,overcast clouds
17,Bud,US,39.447,-86.1758,44.89,61,97,13.87,overcast clouds
18,Sinnamary,GF,5.3833,-52.95,77.07,88,70,7.74,broken clouds
19,Flinders,AU,-34.5833,150.8552,68.18,87,100,8.99,light rain
20,East London,ZA,-33.0153,27.9116,71.51,88,74,16.06,light rain
21,Merauke,ID,-8.4667,140.3333,76.8,93,100,8.3,overcast clouds
22,Porbandar,IN,21.6422,69.6093,69.44,41,1,9.31,clear sky
23,Solyanka,RU,46.3889,48.0176,33.75,86,75,8.95,broken clouds
24,Hobart,AU,-42.8794,147.3294,58.26,70,75,1.01,broken clouds
25,Dukat,RU,62.55,155.55,-28.62,90,3,3.83,clear sky
26,Mataura,NZ,-46.1927,168.8643,55.47,99,99,7.54,light rain
27,Hasaki,JP,35.7333,140.8333,28.8,45,1,10.56,clear sky
28,Tandalti,SD,13.0167,31.8667,62.04,22,1,14.34,clear sky
29,Kapaa,US,22.0752,-159.319,81.12,71,1,1.99,clear sky
30,Micheweni,TZ,-4.9667,39.8333,80.76,82,67,11.63,light rain
31,Luderitz,NA,-26.6481,15.1594,72.27,70,0,20.04,clear sky
32,Ushuaia,AR,-54.8,-68.3,51.46,76,75,39.12,broken clouds
33,Williams Lake,CA,52.1415,-122.1445,13.23,80,90,1.99,overcast clouds
34,Yellowknife,CA,62.456,-114.3525,-22.72,75,0,2.3,clear sky
35,Namibe,AO,-15.1961,12.1522,69.67,79,79,5.28,broken clouds
36,Jamestown,US,42.097,-79.2353,29.52,50,98,11.01,overcast clouds
37,Sao Filipe,CV,14.8961,-24.4956,73.98,76,81,13.96,broken clouds
38,New Norfolk,AU,-42.7826,147.0587,58.91,61,5,1.01,clear sky
39,Dingle,PH,10.9995,122.6711,73.09,95,98,6.89,overcast clouds
40,Sibolga,ID,1.7427,98.7792,74.43,86,100,3.06,overcast clouds
41,Castro,BR,-24.7911,-50.0119,67.15,94,61,2.95,heavy intensity rain
42,Henties Bay,NA,-22.116,14.2845,69.85,90,97,6.69,overcast clouds
43,Grindavik,IS,63.8424,-22.4338,34.27,86,75,25.32,broken clouds
44,Busselton,AU,-33.65,115.3333,81.05,34,23,13.51,few clouds
45,Bonthe,SL,7.5264,-12.505,80.37,81,92,7.7,overcast clouds
46,Upernavik,GL,72.7868,-56.1549,2.08,69,98,6.26,overcast clouds
47,Tuatapere,NZ,-46.1333,167.6833,55.81,92,100,11.45,overcast clouds
48,Iqaluit,CA,63.7506,-68.5145,-11.31,76,90,23.0,light snow
49,Tasiilaq,GL,65.6145,-37.6368,17.76,51,71,6.69,broken clouds
50,Codrington,AU,-38.2667,141.9667,65.62,68,74,16.55,broken clouds
51,Monrovia,LR,6.3005,-10.7969,80.1,82,11,7.11,few clouds
52,Ponta Do Sol,PT,32.6667,-17.1,66.0,92,96,15.43,overcast clouds
53,Dikson,RU,73.5069,80.5464,-6.41,100,74,8.19,broken clouds
54,Corowa,AU,-36.0333,146.3833,73.58,54,100,8.88,overcast clouds
55,Khasan,RU,42.4308,130.6434,11.71,62,69,12.57,broken clouds
56,Khelyulya,RU,61.7333,30.6833,23.27,96,100,8.43,light snow
57,Chuzhou,CN,32.3219,118.2978,41.05,81,0,1.66,clear sky
58,Isangel,VU,-19.55,169.2667,82.76,72,33,9.64,scattered clouds
59,Awans,BE,50.6667,5.4667,38.52,87,0,3.44,clear sky
60,Saint George,US,37.1041,-113.5841,56.35,40,100,4.0,overcast clouds
61,La Ronge,CA,55.1001,-105.2842,-5.89,86,99,11.79,overcast clouds
62,Rikitea,PF,-23.1203,-134.9692,77.77,79,98,15.66,light rain
63,Punta Arenas,CL,-53.15,-70.9167,59.11,63,0,20.71,clear sky
64,Maniitsoq,GL,65.4167,-52.9,21.6,83,100,20.71,light snow
65,Kavieng,PG,-2.5744,150.7967,81.99,78,100,7.56,moderate rain
66,Lorengau,PG,-2.0226,147.2712,80.78,83,100,16.69,overcast clouds
67,Pimentel,PE,-6.8367,-79.9342,77.29,65,0,19.57,clear sky
68,Cape Town,ZA,-33.9258,18.4232,65.1,57,20,6.91,few clouds
69,Carnarvon,AU,-24.8667,113.6333,77.2,84,1,4.0,clear sky
70,Pentecoste,BR,-3.7928,-39.2703,81.68,80,7,7.83,clear sky
71,Nanortalik,GL,60.1432,-45.2371,28.09,82,100,13.6,light snow
72,Caravelas,BR,-17.7125,-39.2481,77.47,86,64,5.84,broken clouds
73,Georgetown,MY,5.4112,100.3354,79.9,76,40,0.0,scattered clouds
74,Souillac,MU,-20.5167,57.5167,81.36,85,100,4.36,overcast clouds
75,Kathu,TH,7.9178,98.3332,76.82,80,91,10.42,overcast clouds
76,Kinango,KE,-4.1372,39.3153,78.91,93,75,3.76,light rain
77,Grand-Lahou,CI,5.1367,-5.0242,79.39,84,7,7.31,clear sky
78,Chokurdakh,RU,70.6333,147.9167,-38.27,99,65,6.46,broken clouds
79,Kingsville,US,27.5159,-97.8561,80.85,54,20,5.99,few clouds
80,Florian,CO,5.8049,-73.9703,66.85,89,100,0.56,overcast clouds
81,Kropotkin,RU,45.4375,40.5756,30.63,93,100,9.84,light snow
82,Port Alfred,ZA,-33.5906,26.891,71.04,86,71,14.79,broken clouds
83,Vitim,RU,59.4511,112.5578,-3.32,81,100,4.94,overcast clouds
84,Soyo,AO,-6.1349,12.3689,76.57,84,18,5.91,few clouds
85,Chapais,CA,49.7834,-74.8492,-12.23,93,100,8.32,overcast clouds
86,Opuwo,NA,-18.0607,13.84,65.88,57,99,4.7,overcast clouds
87,Mandali,IQ,33.7499,45.5541,41.23,55,0,6.15,clear sky
88,Havre-Saint-Pierre,CA,50.2334,-63.5986,26.96,93,100,16.11,overcast clouds
89,Butaritari,KI,3.0707,172.7902,82.0,79,16,17.43,few clouds
90,Sao Joao Nepomuceno,BR,-21.54,-43.0106,75.18,87,27,3.56,scattered clouds
91,Muisne,EC,0.6,-80.0333,76.93,87,97,8.43,light rain
92,Tezu,IN,27.9167,96.1667,57.61,38,100,4.0,overcast clouds
93,Ormstown,CA,45.1334,-73.9992,7.21,84,36,12.01,scattered clouds
94,Constitucion,CL,-35.3333,-72.4167,61.92,51,100,19.51,overcast clouds
95,Pitimbu,BR,-7.4706,-34.8086,79.39,69,13,10.67,few clouds
96,Razumnoye,RU,50.5344,36.6846,22.28,86,100,20.13,snow
97,Port Elizabeth,ZA,-33.918,25.5701,69.1,82,95,18.25,overcast clouds
98,Talnakh,RU,69.4865,88.3972,4.21,89,100,22.28,overcast clouds
99,Rocha,UY,-34.4833,-54.3333,69.31,95,100,16.33,overcast clouds
100,Grand Forks,US,47.9417,-97.4337,8.78,78,75,21.85,broken clouds
101,Albany,US,42.6001,-73.9662,22.23,59,62,3.0,broken clouds
102,Ursulo Galvan,MX,22.7333,-98.3,80.51,56,1,10.42,clear sky
103,Kaitangata,NZ,-46.2817,169.8464,60.06,99,100,2.66,overcast clouds
104,Cabo San Lucas,MX,22.8909,-109.9124,87.62,53,67,4.0,broken clouds
105,Aleksandrovka,UA,46.8383,32.7612,25.97,76,99,15.59,overcast clouds
106,Fort Nelson,CA,58.8053,-122.7002,-7.06,90,41,3.49,scattered clouds
107,Ardakan,IR,32.31,54.0175,40.73,37,0,1.54,clear sky
108,Mnogovershinnyy,RU,53.9353,139.9242,-8.41,86,96,5.32,overcast clouds
109,Saskylakh,RU,71.9167,114.0833,-7.33,94,72,9.64,broken clouds
110,Barrow,US,71.2906,-156.7887,-14.78,76,75,10.36,snow
111,Alice Springs,AU,-23.7,133.8833,71.22,85,90,1.01,overcast clouds
112,Bredasdorp,ZA,-34.5322,20.0403,62.28,62,100,10.78,overcast clouds
113,Fortuna,US,40.5982,-124.1573,52.93,86,20,1.01,few clouds
114,Ribeira Grande,PT,38.5167,-28.7,59.36,80,96,6.17,overcast clouds
115,Anadyr,RU,64.75,177.4833,-30.5,66,20,8.95,fog
116,Pampierstad,ZA,-27.7832,24.6877,75.29,59,57,11.03,broken clouds
117,Avera,US,33.194,-82.5271,56.71,51,8,0.81,clear sky
118,Komsomolskiy,UZ,40.4272,71.7189,40.42,82,100,1.95,overcast clouds
119,Port Shepstone,ZA,-30.7414,30.455,73.74,86,65,4.72,light rain
120,Barranca,PE,-10.75,-77.7667,74.57,74,86,10.4,overcast clouds
121,Rundu,NA,-17.9333,19.7667,66.4,93,99,1.95,light rain
122,Fuerte Olimpo,PY,-21.0415,-57.8738,102.24,19,5,8.23,clear sky
123,Vieste,IT,41.8825,16.175,49.53,52,22,10.67,few clouds
124,Vaini,TO,-21.2,-175.2,81.7,83,5,17.63,clear sky
125,Karangampel,ID,-6.4622,108.4519,77.07,85,98,11.77,overcast clouds
126,Gat,IL,31.61,34.7642,49.91,100,4,11.74,clear sky
127,Voh,NC,-20.9667,164.7,81.97,63,14,3.58,few clouds
128,Dillon,US,34.4166,-79.3712,52.61,50,0,0.72,clear sky
129,Riyadh,SA,24.6877,46.7219,48.34,35,66,7.67,broken clouds
130,Avarua,CK,-21.2078,-159.775,82.45,78,40,20.71,scattered clouds
131,Pahrump,US,36.2083,-115.9839,60.51,37,50,1.01,scattered clouds
132,Bluff,NZ,-46.6,168.3333,55.8,85,100,15.01,overcast clouds
133,Totolapa,MX,18.5167,-96.1833,76.93,57,17,6.26,few clouds
134,Atuona,PF,-9.8,-139.0333,78.73,73,52,22.97,broken clouds
135,Puerto Madryn,AR,-42.7692,-65.0385,65.16,41,47,16.53,scattered clouds
136,Tomar,PT,39.602,-8.4092,48.29,69,2,2.93,clear sky
137,Beitbridge,ZW,-22.2167,30.0,75.4,56,9,5.93,clear sky
138,La Libertad,EC,-2.2333,-80.9,78.46,78,0,5.75,clear sky
139,Santa Maria,BR,-29.6842,-53.8069,91.72,38,100,13.8,overcast clouds
140,Huaiyin,CN,33.5886,119.0192,35.89,86,4,3.62,clear sky
141,Kidal,ML,18.4411,1.4078,59.54,19,0,12.84,clear sky
142,Hambantota,LK,6.1241,81.1185,75.54,100,20,9.22,few clouds
143,Sambava,MG,-14.2667,50.1667,76.93,90,100,4.34,overcast clouds
144,Muroto,JP,33.2833,134.15,28.44,59,2,7.54,clear sky
145,Lebu,CL,-37.6167,-73.65,58.98,65,73,14.99,broken clouds
146,Longyearbyen,SJ,78.2186,15.6401,13.84,73,75,26.46,broken clouds
147,Ak-Dovurak,RU,51.1833,90.6,5.18,97,100,0.43,overcast clouds
148,Denpasar,ID,-8.65,115.2167,78.46,88,40,3.44,scattered clouds
149,Shitanjing,CN,39.2342,106.3439,25.03,32,1,7.38,clear sky
150,Lichuan,CN,30.3,108.85,34.84,79,0,0.45,clear sky
151,Porto Novo,BJ,6.4965,2.6036,80.13,74,2,5.26,clear sky
152,Kodiak,US,57.79,-152.4072,36.91,87,100,9.22,light snow
153,Balakhta,RU,55.38,91.6,4.55,97,92,1.5,overcast clouds
154,Vilyuysk,RU,63.7553,121.6247,-26.0,94,11,5.14,few clouds
155,Vylkove,UA,45.4021,29.586,30.81,58,77,20.4,broken clouds
156,Kitgum,UG,3.2783,32.8867,65.98,85,98,1.66,overcast clouds
157,Coquimbo,CL,-29.9533,-71.3436,66.97,60,0,8.55,clear sky
158,Trincomalee,LK,8.5711,81.2335,79.09,68,100,16.64,overcast clouds
159,Khadyzhensk,RU,44.4256,39.5319,29.86,97,100,5.97,snow
160,Touros,BR,-5.1989,-35.4608,81.5,73,11,13.49,few clouds
161,Kupang,ID,-10.1667,123.5833,72.18,100,100,6.91,heavy intensity rain
162,Airai,TL,-8.9266,125.4092,61.14,94,100,0.85,overcast clouds
163,Mount Gambier,AU,-37.8333,140.7667,63.1,72,84,12.84,broken clouds
164,Mar Del Plata,AR,-38.0023,-57.5575,69.1,84,100,1.99,light rain
165,Kahului,US,20.8947,-156.47,79.84,80,6,4.0,clear sky
166,Rackeresztur,HU,47.2736,18.8334,32.65,81,5,6.08,clear sky
167,Nikolskoye,RU,59.7035,30.7861,28.87,89,96,7.7,overcast clouds
168,Pevek,RU,69.7008,170.3133,-34.46,96,63,3.67,broken clouds
169,Bethel,US,41.3712,-73.414,32.99,58,11,4.0,few clouds
170,Chuy,UY,-33.6971,-53.4616,71.74,92,100,17.36,overcast clouds
171,Bubaque,GW,11.2833,-15.8333,78.78,75,3,13.73,clear sky
172,Hovd,MN,48.0056,91.6419,6.82,85,100,2.24,overcast clouds
173,Jurado,CO,7.1053,-77.7641,80.62,83,85,1.25,light rain
174,Faanui,PF,-16.4833,-151.75,75.18,89,100,23.38,moderate rain
175,Karratha,AU,-20.7377,116.8463,80.1,70,24,4.76,few clouds
176,Praia,CV,14.9215,-23.5087,72.7,76,98,13.29,overcast clouds
177,Brae,GB,60.3964,-1.353,48.11,91,100,29.15,overcast clouds
178,Marechal Deodoro,BR,-9.7103,-35.895,80.01,71,5,6.93,clear sky
179,Tautira,PF,-17.7333,-149.15,82.42,78,100,17.49,moderate rain
180,Comodoro Rivadavia,AR,-45.8667,-67.5,67.86,34,0,20.71,clear sky
181,Pimenta Bueno,BR,-11.6725,-61.1936,82.24,81,14,3.4,few clouds
182,Hervey Bay,AU,-25.2986,152.8535,84.04,73,37,3.0,scattered clouds
183,Pisco,PE,-13.7,-76.2167,75.02,79,55,8.05,broken clouds
184,Listvyanskiy,RU,54.4399,83.4984,-1.53,100,97,5.55,overcast clouds
185,Aguas Formosas,BR,-17.0822,-40.9358,74.48,86,34,0.18,scattered clouds
186,Batya,HU,46.488,18.9542,30.74,83,21,6.6,few clouds
187,Aquiraz,BR,-3.9014,-38.3911,82.49,81,8,10.92,clear sky
188,Bilibino,RU,68.0546,166.4372,-29.56,86,68,1.81,broken clouds
189,Qaanaaq,GL,77.484,-69.3632,-13.31,62,25,10.58,scattered clouds
190,Khatanga,RU,71.9667,102.5,-13.18,98,100,0.29,overcast clouds
191,Victoria,HK,22.2855,114.1577,59.38,81,56,5.99,broken clouds
192,Hamilton,US,39.1834,-84.5333,40.57,70,0,1.99,clear sky
193,Te Anau,NZ,-45.4167,167.7167,61.41,95,100,2.39,overcast clouds
194,Leer,DE,53.2316,7.461,41.22,94,100,1.01,overcast clouds
195,Matay,EG,28.419,30.7792,48.69,52,1,6.22,clear sky
196,Bambanglipuro,ID,-7.95,110.2833,75.06,90,99,5.41,overcast clouds
197,Ondjiva,AO,-17.0667,15.7333,69.62,83,100,4.7,moderate rain
198,Bathsheba,BB,13.2167,-59.5167,77.68,77,22,16.37,few clouds
199,Gorontalo,ID,0.5412,123.0595,73.74,96,100,3.85,overcast clouds
200,Iquitos,PE,-3.7481,-73.2472,89.64,58,40,8.05,scattered clouds
201,Vanavara,RU,60.34,102.2797,-4.43,100,72,4.52,broken clouds
202,Ancud,CL,-41.8697,-73.8203,67.23,52,4,6.4,clear sky
203,Agirish,RU,61.9247,63.0231,11.07,92,70,7.0,broken clouds
204,Malanje,AO,-9.5402,16.341,59.5,81,14,3.36,few clouds
205,Paris,FR,48.8534,2.3488,43.14,90,100,1.01,overcast clouds
206,Belaya Gora,RU,68.5333,146.4167,-45.81,100,52,2.01,broken clouds
207,Sorland,NO,67.667,12.6934,42.87,88,100,35.1,light rain
208,Yatou,CN,37.15,122.3833,31.48,85,38,7.18,scattered clouds
209,Ilhabela,BR,-23.7781,-45.3581,78.89,90,1,3.22,clear sky
210,Ranong,TH,9.9658,98.6348,73.08,91,93,4.41,overcast clouds
211,Krasnoselkup,RU,65.7,82.4667,3.18,95,98,11.54,overcast clouds
212,Cherskiy,RU,68.75,161.3,-47.02,100,95,4.59,overcast clouds
213,Lithakia,GR,37.7167,20.8333,49.59,52,0,7.27,clear sky
214,Dunedin,NZ,-45.8742,170.5036,61.57,99,100,8.08,overcast clouds
215,Samana,DO,19.2056,-69.3369,78.76,79,3,6.85,clear sky
216,Mecca,SA,21.4267,39.8261,62.04,59,0,7.4,clear sky
217,Novikovo,RU,51.1537,37.8879,22.21,95,100,10.54,snow
218,Mountain Home,US,43.133,-115.6912,31.95,80,98,3.18,overcast clouds
219,Ushtobe,KZ,45.2514,77.9838,30.18,97,71,12.03,broken clouds
220,Hilo,US,19.7297,-155.09,80.8,79,2,5.99,clear sky
221,Arraial Do Cabo,BR,-22.9661,-42.0278,76.86,83,0,17.27,clear sky
222,High Level,CA,58.5169,-117.136,-13.81,95,32,2.75,scattered clouds
223,Masterton,NZ,-40.9597,175.6575,68.97,59,24,7.94,few clouds
224,Tuktoyaktuk,CA,69.4541,-133.0374,-14.49,97,100,5.84,overcast clouds
225,Viedma,AR,-40.8135,-62.9967,63.09,50,91,17.02,overcast clouds
226,Trabzon,TR,40.9167,39.8333,32.09,87,75,21.85,broken clouds
227,Trairi,BR,-3.2778,-39.2689,79.93,78,7,11.16,clear sky
228,Fortuna Foothills,US,32.6578,-114.4119,73.49,37,20,4.0,few clouds
229,Santiago,CL,-33.4569,-70.6483,82.29,31,40,9.22,scattered clouds
230,Ambon,ID,-3.6954,128.1814,77.14,94,40,11.5,scattered clouds
231,Tevaitoa,PF,-16.7833,-151.5,76.33,79,100,24.45,light rain
232,Sursk,RU,53.0754,45.6846,31.01,95,100,11.07,light snow
233,Labuan,MY,5.2767,115.2417,75.36,84,90,7.52,overcast clouds
234,Dambulla,LK,7.86,80.6517,69.71,91,99,4.03,overcast clouds
235,Erenhot,CN,43.6475,111.9767,5.16,77,85,10.85,overcast clouds
236,Coihaique,CL,-45.5752,-72.0662,70.41,26,20,8.05,few clouds
237,Kefamenanu,ID,-9.4467,124.4781,72.34,92,100,0.92,light rain
238,Mahebourg,MU,-20.4081,57.7,81.25,83,88,8.16,overcast clouds
239,Renfrew,GB,55.872,-4.3925,48.52,90,100,21.85,overcast clouds
240,Lancaster,US,40.2504,-76.2499,35.1,60,40,7.0,scattered clouds
241,Alihe,CN,50.5667,123.7167,-17.95,97,10,3.42,clear sky
242,San Jose,US,37.3394,-121.895,64.67,70,75,4.61,mist
243,Maraa,BR,-1.8333,-65.3667,76.98,93,75,2.19,broken clouds
244,Pochutla,MX,15.7432,-96.4661,82.81,48,43,5.79,scattered clouds
245,Salinopolis,BR,-0.6136,-47.3561,78.24,86,99,8.37,very heavy rain
246,Egvekinot,RU,66.3167,-179.1667,-15.61,77,15,6.11,few clouds
247,Kentau,KZ,43.5206,68.5094,36.45,84,100,11.14,heavy intensity rain
248,Komatipoort,ZA,-25.4332,31.9548,69.04,86,0,1.63,clear sky
249,Mogadishu,SO,2.0371,45.3438,77.45,77,95,18.28,overcast clouds
250,Ust-Koksa,RU,50.2696,85.6108,20.32,96,100,1.39,light snow
251,Thunder Bay,CA,48.4001,-89.3168,27.55,92,100,13.8,overcast clouds
252,Sisimiut,GL,66.9395,-53.6735,17.2,66,100,20.29,light snow
253,Hithadhoo,MV,-0.6,73.0833,82.4,74,100,8.84,overcast clouds
254,Ambanja,MG,-13.6833,48.45,76.51,90,100,2.75,overcast clouds
255,Havoysund,NO,70.9963,24.6622,36.48,98,100,33.93,light rain
256,Ilmajoki,FI,62.7333,22.5667,38.79,67,0,9.22,clear sky
257,Qaqortoq,GL,60.7167,-46.0333,25.3,64,100,15.48,light snow
258,Norman Wells,CA,65.282,-126.8329,-21.96,69,20,3.44,few clouds
259,Westport,US,41.1415,-73.3579,34.99,48,0,1.01,clear sky
260,Nhulunbuy,AU,-12.2333,136.7667,83.01,83,40,5.75,scattered clouds
261,Srednekolymsk,RU,67.45,153.6833,-44.91,100,67,4.63,broken clouds
262,Kununurra,AU,-15.7667,128.7333,73.38,100,100,2.3,overcast clouds
263,Deputatskiy,RU,69.3,139.9,-27.17,83,60,4.79,broken clouds
264,Gizo,SB,-8.103,156.8419,83.41,74,97,6.15,light rain
265,San Quintin,MX,30.4833,-115.95,63.68,68,0,10.69,clear sky
266,Yangcun,CN,39.3639,117.0603,24.78,77,7,7.78,clear sky
267,Naryan-Mar,RU,67.6713,53.087,-1.8,98,100,1.12,overcast clouds
268,Tura,IN,25.5198,90.2201,57.02,69,96,2.91,overcast clouds
269,Bairiki,KI,1.3292,172.9752,80.6,89,75,6.91,broken clouds
270,Korla,CN,41.7597,86.1469,28.06,40,100,4.63,overcast clouds
271,Lasa,IT,46.6166,10.7002,30.02,63,1,0.83,clear sky
272,Mokhsogollokh,RU,61.4681,128.9203,-40.77,100,52,0.49,broken clouds
273,Orda,RU,57.1951,56.9091,24.39,93,100,17.31,light snow
274,Broken Hill,AU,-31.95,141.4333,65.17,56,99,15.08,light rain
275,Bereda,ES,43.2686,-7.5406,43.0,98,6,2.57,clear sky
276,Antofagasta,CL,-23.65,-70.4,72.21,49,34,8.5,scattered clouds
277,Tiksi,RU,71.6872,128.8694,0.9,74,100,20.22,overcast clouds
278,Makakilo City,US,21.3469,-158.0858,79.61,60,0,8.05,clear sky
279,Norfolk,US,42.1668,-71.2495,29.01,45,0,1.99,clear sky
280,Bac Lieu,VN,9.285,105.7244,74.88,82,77,13.4,broken clouds
281,Canutama,BR,-6.5339,-64.3831,78.21,91,100,3.65,overcast clouds
282,Kindu,CD,-2.95,25.95,68.52,96,100,2.01,overcast clouds
283,Zyryanskoye,RU,56.8306,86.6258,5.25,94,22,9.89,few clouds
284,San Vicente,AR,-26.6167,-54.1333,88.72,28,91,0.65,overcast clouds
285,Barao De Melgaco,BR,-16.1944,-55.9675,88.32,71,59,3.36,broken clouds
286,Nemuro,JP,43.3236,145.575,31.08,71,90,23.11,overcast clouds
287,La Palma,US,33.8464,-118.0467,68.9,71,100,8.01,overcast clouds
288,Ahipara,NZ,-35.1667,173.1667,73.15,52,39,2.66,scattered clouds
289,Boa Vista,BR,2.8197,-60.6733,87.78,42,20,6.91,few clouds
290,Kandrian,PG,-6.2167,149.55,80.83,80,87,5.1,light rain
291,Port Hawkesbury,CA,45.6169,-61.3485,38.17,97,100,7.0,overcast clouds
292,Sabha,LY,27.0377,14.4283,53.74,53,87,7.02,overcast clouds
293,Nuuk,GL,64.1835,-51.7216,25.88,73,100,15.01,overcast clouds
294,Totolapan,MX,18.5167,-96.1833,76.93,57,17,6.26,few clouds
295,Mayumba,GA,-3.432,10.6554,76.64,87,70,2.55,broken clouds
296,Kuvandyk,RU,51.4781,57.3552,-0.63,100,99,3.15,overcast clouds
297,Dekar,BW,-21.5333,21.9333,77.16,52,59,9.04,broken clouds
298,Vila,PT,42.0304,-8.1588,40.33,78,0,3.62,clear sky
299,Vila Franca Do Campo,PT,37.7167,-25.4333,60.19,90,100,21.72,overcast clouds
300,Huangnihe,CN,43.5583,128.0239,-7.04,98,100,2.44,overcast clouds
301,Chiredzi,ZW,-21.05,31.6667,71.55,57,0,3.78,clear sky
302,Palencia,ES,42.4167,-4.5,32.79,56,1,3.96,clear sky
303,Rapid Valley,US,44.0625,-103.1463,35.33,71,75,5.99,broken clouds
304,Myitkyina,MM,25.3833,97.4,53.01,67,87,2.35,overcast clouds
305,Zhigansk,RU,66.7697,123.3711,-28.71,96,59,15.95,broken clouds
306,Mount Darwin,ZW,-16.7725,31.5838,67.59,90,100,2.8,light rain
307,Grenaa,DK,56.4158,10.8783,39.85,93,100,16.08,overcast clouds
308,Emerald,AU,-23.5333,148.1667,80.35,64,89,13.38,overcast clouds
309,San Patricio,US,28.017,-97.5169,79.21,50,24,16.26,few clouds
310,Platnirovskaya,RU,45.3953,39.3842,30.15,89,88,9.84,light snow
311,Magadan,RU,59.5667,150.8,1.17,63,0,9.84,clear sky
312,Aklavik,CA,68.2191,-135.0107,-21.28,97,100,4.99,overcast clouds
313,Hazorasp,UZ,41.3194,61.0742,30.04,98,100,13.13,light snow
314,Kasongo-Lunda,CD,-6.4667,16.8167,68.68,97,98,2.53,overcast clouds
315,Pauini,BR,-7.7136,-66.9764,80.4,78,97,2.37,overcast clouds
316,Shaoyang,CN,27.2315,111.4525,43.32,91,2,0.98,clear sky
317,Atkinson,US,42.8384,-71.147,27.41,46,0,5.99,clear sky
318,Sergeyevka,KZ,53.88,67.4158,6.22,92,8,12.08,clear sky
319,Jhalida,IN,23.3667,85.9667,52.92,39,6,4.32,clear sky
320,Kaka,TM,37.3482,59.6143,36.91,85,90,6.08,overcast clouds
321,Sitka,US,57.0531,-135.33,35.89,85,100,3.18,overcast clouds
322,Dicabisagan,PH,17.0818,122.4157,70.18,82,90,4.72,overcast clouds
323,Kuching,MY,1.55,110.3333,75.42,100,20,2.3,few clouds
324,Severo-Kurilsk,RU,50.6789,156.125,27.1,87,100,6.2,overcast clouds
325,Bani,DO,18.2833,-70.3333,83.64,69,9,7.23,clear sky
326,Vila Velha,BR,-20.3297,-40.2925,80.55,86,20,7.0,few clouds
327,Richards Bay,ZA,-28.783,32.0377,73.27,77,0,10.74,clear sky
328,Chara,RU,56.9064,118.2631,-25.26,52,6,1.36,clear sky
329,Coruripe,BR,-10.1256,-36.1756,78.46,72,0,7.18,clear sky
330,Los Llanos De Aridane,ES,28.6585,-17.9182,62.35,87,100,1.01,overcast clouds
331,Chhatarpur,IN,24.9,79.6,46.38,44,0,2.8,clear sky
332,Chauk,MM,20.8833,94.8167,62.98,62,0,4.14,clear sky
333,Saldanha,ZA,-33.0117,17.9442,63.95,76,47,13.44,scattered clouds
334,Khash,IR,28.2211,61.2158,55.04,93,100,12.12,overcast clouds
335,Vardo,NO,70.3705,31.1107,28.6,93,100,29.93,light snow
336,Chapleau,CA,47.8405,-83.4034,6.89,66,100,6.91,overcast clouds
337,Port Arthur,CN,38.8,121.2667,19.62,72,91,24.18,overcast clouds
338,Barcelona,ES,41.3888,2.159,49.53,87,20,3.0,few clouds
339,Pangnirtung,CA,66.1451,-65.7125,6.8,66,100,8.05,light snow
340,Alyangula,AU,-13.8483,136.4192,84.36,69,100,8.39,overcast clouds
341,Bengkulu,ID,-3.8004,102.2655,74.98,89,100,5.95,overcast clouds
342,Haines Junction,CA,60.7522,-137.5108,2.75,98,100,0.34,overcast clouds
343,Katsuura,JP,35.1333,140.3,37.18,46,56,7.31,broken clouds
344,Poum,NC,-20.2333,164.0167,80.1,67,32,7.45,scattered clouds
345,Leningradskiy,RU,69.3833,178.4167,-26.07,92,62,7.85,broken clouds
346,Wajir,KE,1.7471,40.0573,81.5,55,80,12.84,broken clouds
347,Sur,OM,22.5667,59.5289,73.38,73,4,4.99,clear sky
348,Flin Flon,CA,54.7682,-101.865,-3.98,90,100,10.71,overcast clouds
349,Thabazimbi,ZA,-24.5917,27.4116,70.97,68,16,3.0,few clouds
350,Lagoa,PT,39.05,-27.9833,58.23,84,100,7.54,overcast clouds
351,Ponta Delgada,PT,37.7333,-25.6667,60.49,94,20,12.66,few clouds
352,Kaarina,FI,60.4072,22.369,32.77,91,0,8.05,clear sky
353,Northam,GB,51.0333,-4.2167,46.09,89,15,6.85,few clouds
354,Yaounde,CM,3.8667,11.5167,68.76,82,82,2.64,broken clouds
355,Rorvik,NO,64.8621,11.2373,44.71,100,75,34.52,moderate rain
356,Thayetmyo,MM,19.3167,95.1833,61.63,63,1,4.27,clear sky
357,Lakatoro,VU,-16.0999,167.4164,83.44,67,39,5.21,scattered clouds
358,Paoua,CF,7.2427,16.4406,66.79,26,34,4.52,scattered clouds
359,Muzhi,RU,65.3667,64.6667,6.12,97,100,3.0,overcast clouds
360,Kuytun,RU,54.3419,101.5036,3.29,100,92,0.63,overcast clouds
361,Tokamachi,JP,37.1333,138.7667,29.01,92,100,5.1,overcast clouds
362,Uglich,RU,57.5275,38.3317,7.95,97,63,6.2,broken clouds
363,Kimbe,PG,-5.5502,150.1429,78.33,90,96,1.23,moderate rain
364,Freeport,US,40.6576,-73.5832,36.25,45,0,10.0,clear sky
365,Pyatnitskoye,RU,50.4233,37.8273,20.59,96,98,4.7,snow
366,Muros,ES,42.7762,-9.0603,52.3,93,0,6.69,clear sky
367,Puerto Carreno,CO,6.189,-67.4859,93.02,31,11,14.14,few clouds
368,Clyde River,CA,70.4692,-68.5914,-7.37,84,100,24.16,overcast clouds
369,Kadoma,JP,34.7333,135.5833,39.18,73,29,1.52,scattered clouds
370,Chippewa Falls,US,44.9369,-91.3929,40.14,70,0,16.11,clear sky
371,Khorixas,NA,-20.3667,14.9667,67.71,70,100,9.08,overcast clouds
372,Oranjemund,NA,-28.55,16.4333,68.86,90,5,12.73,clear sky
373,La Tuque,CA,47.4334,-72.7824,-5.28,84,54,10.25,broken clouds
374,Dakar,SN,14.6937,-17.4441,74.28,71,7,14.23,clear sky
375,Hofn,IS,64.2539,-15.2082,31.73,55,2,11.83,clear sky
376,Isla Mujeres,MX,21.2311,-86.731,69.17,64,37,9.08,scattered clouds
377,Rwamagana,RW,-1.9487,30.4347,62.04,96,100,0.85,overcast clouds
378,Noumea,NC,-22.2763,166.4572,82.38,99,12,10.65,few clouds
379,Russell,US,32.3502,-85.1999,56.91,59,21,2.89,few clouds
380,Daru,PG,-9.0763,143.2092,76.32,91,100,6.98,overcast clouds
381,Nancha,CN,47.1333,129.2667,-12.06,99,37,2.3,scattered clouds
382,Capitan Bado,PY,-23.2667,-55.5333,90.16,28,87,6.15,overcast clouds
383,Lhokseumawe,ID,5.1801,97.1507,74.19,85,99,5.28,overcast clouds
384,Acapulco,MX,16.8634,-99.8901,81.84,64,39,6.64,scattered clouds
385,Kovdor,RU,67.5662,30.4758,24.06,94,100,10.25,overcast clouds
386,Abu Kamal,SY,34.4506,40.9171,40.71,23,0,13.53,clear sky
387,Tessalit,ML,20.1986,1.0114,59.02,19,0,12.84,clear sky
388,Tanda,IN,26.55,82.65,46.58,53,0,6.58,clear sky
389,Canete,CL,-37.8,-73.4,60.04,56,80,8.52,broken clouds
390,Khandyga,RU,62.6667,135.6,-46.59,100,63,1.52,broken clouds
391,Khani,GE,41.9563,42.9566,26.17,77,98,7.67,overcast clouds
392,Rawson,AR,-43.3002,-65.1023,65.28,39,15,19.28,few clouds
393,Sao Felix Do Xingu,BR,-6.6447,-51.995,74.23,96,100,0.74,overcast clouds
394,Port Hardy,CA,50.6996,-127.4199,45.75,93,100,11.5,light intensity drizzle
395,Solaro,IT,44.8799,9.1732,45.61,87,0,0.92,clear sky
396,Thompson,CA,55.7435,-97.8558,-9.96,89,96,8.63,overcast clouds
397,Portland,US,45.5234,-122.6762,50.85,93,100,1.01,overcast clouds
398,Kiama,AU,-34.6833,150.8667,68.38,90,100,1.99,overcast clouds
399,Naze,JP,28.3667,129.4833,52.72,61,96,7.49,overcast clouds
400,Guadix,ES,37.2993,-3.1392,35.46,41,26,0.22,scattered clouds
401,Panaba,MX,21.2833,-88.2667,78.93,41,4,7.45,clear sky
402,General Jose Eduvigis Diaz,PY,-27.1667,-58.4167,91.44,29,100,9.44,overcast clouds
403,Campo Verde,BR,-20.4167,-54.0667,67.21,87,92,10.67,overcast clouds
404,Entebbe,UG,0.0644,32.4469,66.52,88,20,5.75,few clouds
405,Panguna,PG,-6.3164,155.4848,77.47,74,100,1.88,overcast clouds
406,Mugumu,TZ,-1.85,34.7,58.32,96,100,2.77,overcast clouds
407,Verkhniy Lomov,RU,53.4678,43.5511,23.74,97,100,5.7,light snow
408,Port Lincoln,AU,-34.7333,135.8667,62.98,68,100,19.84,overcast clouds
409,Mwinilunga,ZM,-11.7358,24.4293,59.88,98,100,3.8,overcast clouds
410,Cidreira,BR,-30.1811,-50.2056,77.99,80,100,5.84,overcast clouds
411,Aykhal,RU,66.0,111.5,-6.59,100,100,10.87,overcast clouds
412,Provideniya,RU,64.3833,-173.3,-4.65,71,0,2.24,clear sky
413,General Roca,AR,-39.0333,-67.5833,59.63,74,100,16.64,overcast clouds
414,Tolaga Bay,NZ,-38.3667,178.3,78.35,35,0,4.41,clear sky
415,Solnechnyy,RU,50.7214,136.6319,-6.81,96,67,3.53,broken clouds
416,Healdsburg,US,38.6105,-122.8692,64.9,87,75,4.61,broken clouds
417,Mentor,US,41.6662,-81.3395,31.75,66,75,1.01,broken clouds
418,Kytmanovo,RU,53.4593,85.4479,0.37,100,98,0.67,overcast clouds
419,Tungor,RU,53.3808,142.9564,-3.26,95,99,21.07,overcast clouds
420,Makokou,GA,0.5738,12.8642,69.46,96,59,2.06,moderate rain
421,Axim,GH,4.8699,-2.2405,79.72,79,9,5.57,clear sky
422,Chok Chai,TH,14.7284,102.1652,63.95,75,92,4.14,overcast clouds
423,Makat,KZ,47.6469,53.3463,22.15,88,95,12.03,overcast clouds
424,Aktau,KZ,43.65,51.2,32.58,83,92,21.99,overcast clouds
425,Mareeba,AU,-17.0,145.4333,79.52,83,100,2.37,overcast clouds
426,Somerville,US,42.3876,-71.0995,29.37,43,20,3.0,few clouds
427,Chingola,ZM,-12.529,27.8838,60.96,99,100,3.85,moderate rain
428,Ambilobe,MG,-13.2,49.05,76.46,91,100,3.4,overcast clouds
429,Corrente,BR,-3.7367,-43.3394,75.69,88,92,3.76,overcast clouds
430,Goderich,CA,43.7501,-81.7165,29.91,84,100,16.46,overcast clouds
431,Vawkavysk,BY,53.1561,24.4513,28.42,93,58,7.61,broken clouds
432,Carutapera,BR,-1.195,-46.02,75.88,94,88,5.57,heavy intensity rain
433,Novyy Urengoy,RU,66.0833,76.6333,-10.53,100,85,5.66,overcast clouds
434,Zaterechnyy,RU,44.7931,45.2097,29.91,68,81,8.7,broken clouds
435,Rio Grande,BR,-32.035,-52.0986,78.94,86,100,8.95,overcast clouds
436,Mizdah,LY,31.4451,12.9801,45.52,77,0,5.73,clear sky
437,Mae Sai,TH,20.4335,99.8762,62.44,99,74,0.94,broken clouds
438,Kodinsk,RU,58.6881,99.1844,-4.68,100,82,3.49,broken clouds
439,Esperance,AU,-33.8667,121.9,61.18,78,0,13.18,clear sky
440,Morant Bay,JM,17.8815,-76.4093,75.65,77,29,11.39,scattered clouds
441,Santa Rosalia,MX,27.3167,-112.2833,73.31,48,35,3.33,scattered clouds
442,Woodward,US,36.4337,-99.3904,63.63,25,0,0.0,clear sky
443,Iskateley,RU,67.6803,53.1512,-2.06,98,100,0.92,overcast clouds
444,Estelle,US,29.8458,-90.1067,66.0,58,0,3.0,clear sky
445,Luebo,CD,-5.35,21.4167,69.17,97,100,1.01,overcast clouds
446,Port Macquarie,AU,-31.4333,152.9167,74.89,94,75,8.05,broken clouds
447,Curup,ID,-3.4667,102.5333,66.74,97,100,2.48,overcast clouds
448,Cayenne,GF,4.9333,-52.3333,79.09,87,75,1.99,broken clouds
449,Inhambane,MZ,-23.865,35.3833,74.95,78,2,6.85,clear sky
450,Menongue,AO,-14.6585,17.691,63.82,95,100,2.17,light rain
451,Saint-Francois,FR,46.4154,3.9054,31.68,89,5,2.3,clear sky
452,Machiques,VE,10.0644,-72.545,88.2,44,64,13.91,broken clouds
453,Mehamn,NO,71.0357,27.8492,35.55,87,75,26.46,snow
454,Gilgit,PK,35.9221,74.3087,32.92,77,100,1.19,overcast clouds
455,Majene,ID,-3.5403,118.9707,77.88,81,100,5.44,overcast clouds
456,Anloga,GH,5.7947,0.8973,81.73,73,78,8.14,broken clouds
457,Jeremie,HT,18.65,-74.1167,77.18,81,27,10.71,scattered clouds
458,Berlevag,NO,70.8578,29.0864,35.6,86,75,29.93,broken clouds
459,Bagdarin,RU,54.4333,113.6,-20.25,98,92,1.54,overcast clouds
460,Nioro,GM,13.35,-15.75,84.09,15,0,7.85,clear sky
461,Roebourne,AU,-20.7833,117.1333,80.55,68,32,5.17,scattered clouds
462,Dabat,ET,12.9842,37.765,50.95,71,8,2.62,clear sky
463,Victor Harbor,AU,-35.5667,138.6167,64.0,69,27,1.01,scattered clouds
464,Barabai,ID,-2.5833,115.3833,73.54,97,98,1.66,overcast clouds
465,Latung,PH,5.5,120.8833,80.62,81,100,9.64,overcast clouds
466,Mgandu,TZ,-5.95,34.1333,60.96,98,99,6.62,moderate rain
467,Bowen,AU,-20.0167,148.2333,82.78,63,100,11.74,overcast clouds
468,Przhevalskoye,RU,55.5093,31.8482,9.99,99,89,4.65,overcast clouds
469,Shelburne,CA,44.0787,-80.2041,19.24,75,95,4.9,overcast clouds
470,Lexington,US,37.9887,-84.4777,37.54,71,0,1.99,clear sky
471,Krasnorechenskiy,RU,44.6265,135.3532,-8.01,97,92,5.06,overcast clouds
472,Jansath,IN,29.3333,77.85,45.9,66,2,5.5,clear sky
473,Manta,EC,-0.95,-80.7333,78.85,70,84,12.48,broken clouds
474,Salalah,OM,17.0151,54.0924,71.69,68,20,5.75,few clouds
475,Buala,SB,-8.145,159.5921,83.93,72,100,2.42,overcast clouds
476,Sao Joao Da Barra,BR,-21.6403,-41.0511,77.27,87,1,14.56,clear sky
477,Vaitape,PF,-16.5167,-151.75,75.16,89,100,23.71,moderate rain
478,Pangai,TO,-19.8,-174.35,81.88,84,14,17.54,light rain
479,Tilichiki,RU,60.4667,166.1,-20.45,89,5,9.35,clear sky
480,Padang,ID,-0.9492,100.3543,75.27,88,100,5.46,overcast clouds
481,Telgte,DE,51.9833,7.7833,42.98,89,75,1.14,broken clouds
482,Port Lavaca,US,28.615,-96.6261,75.31,61,40,14.97,scattered clouds
483,Gari,RU,59.4307,62.3497,21.33,89,97,9.89,overcast clouds
484,Mount Isa,AU,-20.7333,139.5,74.97,100,40,5.75,light rain
485,Nueve De Julio,AR,-35.4444,-60.8831,67.71,92,99,12.33,overcast clouds
486,Abay,KZ,49.6311,72.8539,5.38,99,40,5.93,scattered clouds
487,Kharitonovo,RU,61.4009,47.4978,1.85,100,96,3.38,light snow
488,Porto Belo,BR,-27.1578,-48.5531,84.16,89,7,6.44,clear sky
489,Bima,ID,-8.4667,118.7167,75.78,92,100,4.32,heavy intensity rain
490,Oistins,BB,13.0667,-59.5333,77.61,76,14,16.98,few clouds
491,Buynaksk,RU,42.819,47.1192,24.82,49,8,6.13,clear sky
492,Saint-Leu,RE,-21.15,55.2833,79.66,82,76,7.76,broken clouds
493,Illapel,CL,-31.6308,-71.1653,72.66,40,0,7.31,clear sky
494,Hami,CN,42.8,93.45,24.64,42,5,6.91,clear sky
495,Luanda,AO,-8.8368,13.2343,74.46,76,48,8.52,scattered clouds
496,Atambua,ID,-9.1061,124.8925,72.63,90,100,0.76,moderate rain
497,Cockburn Town,TC,21.4612,-71.1419,76.73,73,40,19.57,scattered clouds
498,Faya,SA,18.3851,42.4509,55.92,87,25,4.45,scattered clouds
499,Manzhouli,CN,49.6,117.4333,-16.87,96,4,3.47,clear sky
500,Kokstad,ZA,-30.5472,29.4241,61.97,97,9,6.08,moderate rain
501,Jupiter,US,26.9342,-80.0942,66.22,56,0,5.99,clear sky
502,Jiwani,PK,25.05,61.7417,71.01,75,5,2.39,clear sky
503,Conde,BR,-7.2597,-34.9075,78.26,83,20,8.05,few clouds
504,Khovu-Aksy,RU,51.1333,93.6,4.89,95,100,2.53,overcast clouds
505,Campbellton,CA,48.0075,-66.6727,5.61,81,100,19.84,overcast clouds
506,Nevelsk,RU,46.6733,141.8633,10.83,78,66,17.98,broken clouds
507,Husavik,IS,66.0449,-17.3389,26.35,96,85,8.79,snow
508,Vicuna,CL,-30.0319,-70.7081,81.77,44,0,7.38,clear sky
509,Shingu,JP,33.7333,135.9833,38.91,80,4,6.2,clear sky
510,Keti Bandar,PK,24.1447,67.4497,69.96,54,0,9.17,clear sky
511,Cabedelo,BR,-6.9811,-34.8339,81.18,70,29,10.83,scattered clouds
512,Marzuq,YE,14.4,46.4667,62.8,47,0,5.97,clear sky
513,Sistranda,NO,63.7256,8.834,46.9,70,100,41.52,overcast clouds
514,Kargasok,RU,59.0556,80.8572,9.73,92,96,11.41,overcast clouds
515,Hobyo,SO,5.3505,48.5268,77.02,81,34,9.51,scattered clouds
516,Goure,NE,13.9835,10.2704,56.91,27,4,10.42,clear sky
517,Twentynine Palms,US,34.1356,-116.0542,68.14,37,31,3.0,scattered clouds
518,Saint-Georges,GD,12.0564,-61.7485,76.68,88,75,28.77,broken clouds
519,Minsk,BY,53.9,27.5667,15.55,91,41,6.98,scattered clouds
520,Lulea,SE,65.5842,22.1547,41.07,75,0,4.61,clear sky
521,Whitehorse,CA,60.7161,-135.0538,8.82,87,100,15.99,overcast clouds
522,Pedernales,DO,18.0384,-71.744,79.36,69,10,5.55,clear sky
523,Port-Gentil,GA,-0.7193,8.7815,79.12,83,98,6.33,overcast clouds
524,North Kessock,GB,57.5013,-4.2443,48.38,85,75,17.27,broken clouds
525,Jerantut,MY,3.936,102.3626,71.51,92,100,1.88,overcast clouds
526,Kuminskiy,RU,58.6667,66.5667,17.4,93,99,9.13,overcast clouds
527,Najran,SA,17.4924,44.1277,66.18,47,1,3.18,clear sky
528,Petropavlovsk-Kamchatskiy,RU,53.0452,158.6483,23.59,50,75,11.18,broken clouds
529,Vestmannaeyjar,IS,63.4427,-20.2734,38.75,60,100,31.27,overcast clouds
530,Hammerfest,NO,70.6634,23.6821,36.05,93,75,11.5,light rain
531,Bandarbeyla,SO,9.4942,50.8122,76.23,78,47,10.04,scattered clouds
532,Zhoucheng,CN,35.9122,116.3117,32.4,86,2,4.85,clear sky
533,Gonaives,HT,19.45,-72.6833,78.78,65,80,6.35,broken clouds
534,Tecoanapa,MX,16.5167,-98.75,81.07,65,96,7.67,overcast clouds
535,Hearst,CA,49.6835,-83.6665,1.54,89,100,5.39,overcast clouds
536,Abalak,RU,58.1286,68.5944,13.95,93,99,9.28,overcast clouds
537,Namatanai,PG,-3.6667,152.4333,82.6,76,84,10.0,light rain
538,Leshukonskoye,RU,64.8989,45.7622,0.3,99,99,3.15,overcast clouds
539,Piacabucu,BR,-10.4056,-36.4344,78.91,73,0,6.24,clear sky
540,Camacha,PT,33.0833,-16.3333,63.54,72,20,16.11,few clouds
541,Cururupu,BR,-1.8283,-44.8683,76.44,93,95,2.8,overcast clouds
542,Sri Aman,MY,1.2376,111.4621,71.56,100,90,0.96,light rain
543,Tabuk,PH,17.4189,121.4443,64.35,88,88,1.95,overcast clouds
544,Oranjestad,AW,12.524,-70.027,80.55,78,40,16.11,scattered clouds
545,Sao Tome,ST,0.3365,6.7273,79.25,83,100,2.98,overcast clouds
546,Marataizes,BR,-21.0433,-40.8244,77.09,87,0,17.05,clear sky
547,Chumphon,TH,10.3333,98.8333,65.95,98,98,2.08,overcast clouds
548,Puerto Del Rosario,ES,28.5004,-13.8627,65.88,63,6,6.91,clear sky
549,San Policarpo,PH,12.1791,125.5072,77.95,86,100,15.7,moderate rain
550,Dongsheng,CN,39.8161,109.9776,17.76,52,8,0.96,clear sky
551,San Juan Bautista,PE,-14.0108,-75.7358,72.23,48,53,13.87,broken clouds
552,San Vicente De Canete,PE,-13.0751,-76.3835,74.93,76,45,5.28,scattered clouds
553,Geraldton,AU,-28.7667,114.6,86.41,23,1,12.66,clear sky
554,Vyazma,RU,55.2104,34.2951,5.04,98,68,7.2,broken clouds
555,Antsla,EE,57.8256,26.5406,31.75,85,100,9.75,overcast clouds
556,Beira,MZ,-19.8436,34.8389,78.85,73,0,8.19,clear sky
557,Necochea,AR,-38.5473,-58.7368,64.04,80,100,16.84,light rain
558,Taunsa,PK,30.7048,70.6505,61.25,32,98,1.97,light rain
559,Tomatlan,MX,19.9333,-105.25,82.09,57,100,7.16,overcast clouds
560,Orotukan,RU,62.2667,151.7,-31.63,93,10,3.09,clear sky
561,Beringovskiy,RU,63.05,179.3167,-18.76,90,9,10.25,clear sky
562,Thinadhoo,MV,0.5333,72.9333,82.49,77,100,11.77,overcast clouds
563,Kurilsk,RU,45.2333,147.8833,29.03,66,92,24.76,overcast clouds
564,Maldonado,UY,-34.6667,-54.9167,69.22,95,100,13.73,overcast clouds
565,Domoni,KM,-12.2569,44.5319,81.25,82,99,12.01,light rain
566,Amnat Charoen,TH,15.9167,104.75,65.32,85,65,14.2,broken clouds
567,Ulladulla,AU,-35.35,150.4667,66.09,81,100,11.36,overcast clouds
568,Nizhnyaya Omka,RU,55.4338,74.9426,6.53,95,64,8.7,broken clouds
569,Marawi,PH,7.9986,124.2928,65.64,95,91,1.23,overcast clouds
570,Edd,ER,13.9297,41.6925,76.42,86,63,13.73,broken clouds
571,Keita,NE,14.7551,5.7749,60.55,18,0,12.57,clear sky
572,Nome,US,64.5011,-165.4064,-19.84,69,0,0.0,clear sky
573,Santa Isabel,BR,-23.3156,-46.2214,78.58,85,82,2.91,broken clouds
574,Dong Hoi,VN,17.4833,106.6,62.92,87,96,10.76,overcast clouds
575,Mallaig,CA,54.2169,-111.3685,-9.98,92,76,7.83,broken clouds
576,Mariveles,PH,14.4833,120.4833,68.59,82,98,9.37,overcast clouds
577,Pitogo,PH,13.7847,122.0881,74.35,89,88,9.13,overcast clouds
578,Zephyrhills,US,28.2336,-82.1812,64.58,32,0,0.0,clear sky
579,Ambah,IN,26.7075,78.2261,45.72,54,0,3.2,clear sky
580,Harriston,CA,43.9001,-80.883,20.5,95,100,8.03,overcast clouds
581,Aksu,CN,41.1231,80.2644,23.76,46,24,0.94,few clouds
582,Ishigaki,JP,24.3448,124.1572,66.27,82,99,27.85,overcast clouds
583,Seydi,TM,39.4816,62.9137,36.32,87,100,20.69,overcast clouds
584,Tete,MZ,-16.1564,33.5867,74.37,80,52,3.2,broken clouds
585,Lisala,CD,2.15,21.5167,70.75,72,74,1.16,broken clouds
586,Kotovo,RU,50.3211,44.8012,30.61,97,100,14.74,light snow
587,Soro,IN,21.2881,86.6858,60.15,47,3,4.05,clear sky
588,Srandakan,ID,-7.9386,110.2506,75.27,89,99,5.48,overcast clouds
589,Maceio,BR,-9.6658,-35.7353,80.04,78,20,6.91,few clouds
590,Miramar,US,25.9873,-80.2323,68.02,45,0,9.22,clear sky
591,Antequera,ES,37.0194,-4.5612,45.95,86,89,4.5,overcast clouds
592,Beloha,MG,-25.1667,45.05,69.15,76,1,9.15,clear sky
593,Lata,PT,40.1629,-8.3327,50.81,70,4,3.22,clear sky
594,Tucdao,PH,11.7011,124.4719,75.94,91,99,10.54,overcast clouds
595,Dagana,MR,16.5165,-15.5068,80.78,13,7,9.69,clear sky
596,Tongren,CN,27.7172,109.1853,43.77,93,34,1.72,scattered clouds
597,Conceicao Do Araguaia,BR,-8.2578,-49.2647,73.42,95,100,3.27,overcast clouds
598,Xacmaz,AZ,41.4635,48.806,36.5,56,5,4.36,clear sky
599,The Valley,AI,18.217,-63.0578,78.94,73,20,11.5,few clouds
600,Satis,RU,54.9229,43.2298,19.67,95,100,9.28,snow
601,Kendari,ID,-3.945,122.4989,74.95,93,99,3.2,overcast clouds
602,Lake Havasu City,US,34.4839,-114.3224,68.0,29,100,3.0,overcast clouds
603,Alofi,NU,-19.0595,-169.9187,84.09,79,75,20.71,light intensity drizzle
604,Kedgwick,CA,47.6446,-67.3434,-0.31,86,100,15.79,overcast clouds
605,Laramie,US,41.3114,-105.5911,47.35,35,0,3.44,clear sky
606,Raudeberg,NO,61.9875,5.1352,46.18,86,100,18.99,light rain
607,Kushiro,JP,42.975,144.3747,23.95,80,75,8.05,broken clouds
608,Wilmington,US,34.2257,-77.9447,49.91,62,0,4.14,clear sky
609,Reforma,MX,18.1,-91.0167,79.63,46,0,0.63,clear sky
610,Novoagansk,RU,61.9449,76.6625,15.66,94,100,13.04,light snow
611,Ust-Nera,RU,64.5667,143.2,-33.12,92,84,3.49,broken clouds
612,Ankara,TR,39.9199,32.8543,22.39,65,20,2.3,few clouds
613,Petrivka,UA,46.9695,30.9591,28.85,67,61,19.42,broken clouds
614,Half Moon Bay,US,37.4636,-122.4286,64.72,78,0,1.99,clear sky
615,Laguna,US,38.421,-121.4238,64.26,61,0,1.01,clear sky
616,Preeceville,CA,51.95,-102.6677,-2.61,88,100,15.26,overcast clouds
617,Ornskoldsvik,SE,63.2909,18.7153,40.82,93,40,8.05,scattered clouds
618,Bansi,IN,27.1833,82.9333,47.37,66,2,6.46,clear sky
619,Dawlatabad,AF,36.4141,64.9053,47.3,78,89,8.46,overcast clouds
620,Wysokie Mazowieckie,PL,52.9166,22.5171,29.37,93,61,8.05,broken clouds
621,Upington,ZA,-28.4478,21.2561,80.94,32,90,16.11,overcast clouds
622,Virginia Beach,US,36.8529,-75.978,46.02,47,0,4.61,clear sky
623,Aksay,RU,47.26,39.87,29.7,79,99,7.0,overcast clouds
624,College,US,64.8569,-147.8028,6.28,80,75,0.0,broken clouds
625,Guarapari,BR,-20.6667,-40.4975,80.49,85,1,13.29,clear sky
626,Lavrentiya,RU,65.5833,-171.0,-16.31,95,36,4.83,scattered clouds
627,Bacolod,PH,10.6667,122.95,75.63,89,100,12.68,overcast clouds
628,Tarancon,ES,40.0085,-3.0073,40.8,36,57,2.89,broken clouds
629,Mananjary,MG,-21.2167,48.3333,75.45,88,100,2.66,overcast clouds
630,Waingapu,ID,-9.6567,120.2641,76.33,89,100,5.88,light rain
631,Maarianhamina,AX,60.0973,19.9348,35.46,80,0,4.61,clear sky
632,Hemnesberget,NO,66.2333,13.6333,46.92,94,100,18.92,moderate rain
633,San Miguel,SV,13.4833,-88.1833,93.83,23,2,3.87,clear sky
634,Zuwarah,LY,32.9312,12.082,54.39,66,0,5.73,clear sky
635,Pedro Betancourt,CU,22.7272,-81.29,72.14,56,62,8.34,broken clouds
636,Quesnel,CA,52.9999,-122.5029,15.71,87,98,3.6,overcast clouds
637,Sakakah,SA,29.9697,40.2064,41.07,35,7,6.89,clear sky
638,Eyl,SO,7.9803,49.8164,75.52,83,31,11.16,scattered clouds
639,Baykit,RU,61.67,96.37,5.31,95,100,4.92,overcast clouds
640,Quatre Cocos,MU,-20.2078,57.7625,81.09,83,58,8.59,broken clouds
641,Almonte,ES,37.2647,-6.5167,49.44,63,51,4.18,broken clouds
642,Oksfjord,NO,70.2396,22.3479,37.47,97,100,10.0,light snow
643,Kruisfontein,ZA,-34.0033,24.7314,66.88,83,100,17.36,overcast clouds
644,Lisakovsk,KZ,52.5369,62.4936,4.15,93,51,9.17,broken clouds
645,Puerto Quijarro,BO,-17.7833,-57.7667,89.78,46,61,5.41,broken clouds
646,Dhanbad,IN,23.8,86.45,54.57,32,66,6.13,broken clouds
647,Walvis Bay,NA,-22.9575,14.5053,70.09,81,60,8.88,broken clouds
648,Fairbanks,US,64.8378,-147.7164,8.82,83,100,0.72,overcast clouds
649,Kavaratti,IN,10.5669,72.642,80.78,73,82,8.88,broken clouds
650,Harper,LR,4.375,-7.7169,79.11,82,19,7.2,few clouds
651,Kulhudhuffushi,MV,6.6221,73.07,80.85,71,99,5.44,overcast clouds
652,Mkushi,ZM,-13.6202,29.3939,63.79,99,100,4.14,moderate rain
653,Selfoss,IS,63.9331,-20.9971,35.04,62,87,22.88,overcast clouds
654,Macapa,BR,0.0389,-51.0664,82.38,78,75,9.22,broken clouds
655,Kyabe,TD,9.4515,18.9449,72.43,20,2,7.4,clear sky
656,Gambela,ET,8.25,34.5833,76.59,33,96,2.06,overcast clouds
657,Usak,TR,38.5,29.4167,19.56,87,3,5.39,clear sky
658,Assare,BR,-6.8744,-39.875,78.6,47,50,4.43,scattered clouds
659,Svetlyy,RU,54.675,20.1347,35.96,78,76,14.45,broken clouds
660,Roald,NO,62.5833,6.1333,48.34,66,40,25.32,scattered clouds
661,San Cristobal,VE,7.7669,-72.225,76.5,60,92,1.9,overcast clouds
662,Mawlaik,MM,23.6333,94.4167,54.46,73,69,0.76,broken clouds
663,Mandal,IN,25.45,74.5667,53.73,30,0,2.04,clear sky
664,Zima,RU,53.9202,102.0442,3.04,100,90,2.42,overcast clouds
665,Yumen,CN,40.2833,97.2,21.45,37,0,5.82,clear sky
666,Zhuhai,CN,22.2769,113.5678,60.06,77,20,12.66,few clouds
667,Krasnaya Gora,RU,52.9995,31.6023,15.19,91,56,11.86,broken clouds
668,Tigil,RU,57.8,158.6667,-6.39,90,55,4.27,broken clouds
669,Guangyuan,CN,32.442,105.823,40.95,86,2,2.15,clear sky
670,Petit Goave,HT,18.4314,-72.8669,82.58,74,31,6.76,scattered clouds
671,Vostok,RU,46.4856,135.8833,-15.83,99,100,3.67,overcast clouds
672,Shibetsu,JP,43.659,145.132,27.27,92,98,9.08,light snow
673,Dubuque,US,42.4833,-90.8668,38.62,70,0,17.27,clear sky
674,Yenagoa,NG,4.9247,6.2642,76.77,86,100,4.05,overcast clouds
675,Abu Samrah,SY,35.3029,37.1841,45.32,73,77,20.36,broken clouds
676,Nigran,ES,42.1415,-8.8066,51.04,88,0,1.14,fog
677,Lompoc,US,34.6391,-120.4579,69.69,79,0,13.8,clear sky
678,Kokopo,PG,-4.352,152.2633,80.37,78,69,4.27,broken clouds
679,Yebaishou,CN,41.3975,119.6408,6.87,83,10,6.44,clear sky
680,Vryheid,ZA,-27.7695,30.7917,58.68,95,0,4.52,clear sky
681,Taltal,CL,-25.4,-70.4833,69.66,74,22,8.21,few clouds
682,Pontian Kecil,MY,1.4801,103.3899,78.93,87,97,6.38,overcast clouds
683,Acarau,BR,-2.8856,-40.12,81.0,77,15,16.73,few clouds
684,Supe,PE,-10.8,-77.7333,74.5,75,85,10.13,overcast clouds
685,Nogliki,RU,51.8333,143.1667,3.7,93,100,15.77,light snow
686,Yar-Sale,RU,66.8333,70.8333,-5.37,100,99,3.02,overcast clouds
687,Burla,IN,21.5,83.8667,59.0,59,0,2.17,clear sky
688,Ypane,PY,-25.45,-57.5333,100.35,15,100,4.65,overcast clouds
689,Damietta,EG,31.4165,31.8133,51.28,60,8,19.42,clear sky
690,Yerbogachen,RU,61.2767,108.0108,3.79,99,100,4.94,overcast clouds
691,Dhidhdhoo,MV,6.8833,73.1,80.76,71,82,4.54,broken clouds
692,Xining,CN,36.6167,101.7667,24.22,22,0,2.59,clear sky
693,Atar,MR,20.5169,-13.0499,71.49,12,28,10.36,scattered clouds
694,Qostanay,KZ,53.1667,63.5833,6.85,92,36,10.76,scattered clouds
695,Assiniboia,CA,49.6334,-105.9845,-5.6,92,100,15.77,overcast clouds
